{
  "meta": {
    "city": "Coimbatore",
    "state": "Tamil Nadu",
    "country": "India",
    "radius_m": 100,
    "total_zones": 47,
    "last_updated": "2026-03-01",
    "source": "Google Places API - verified real coordinates",
    "zone_types": ["HOSPITAL", "PHC", "SCHOOL", "PRIVATE_SCHOOL", "COLLEGE", "ANGANWADI", "WATER_BODY"]
  },
  "sensitive_zones": [

    { "zone_id": "CBE_HOS_001", "name": "Coimbatore Medical College Hospital (CMCH)", "zone_type": "HOSPITAL", "lat": 10.9954372, "lng": 76.9702762, "address": "1619A, Trichy Rd, Gopalapuram, Coimbatore - 641018", "ward": "Gopalapuram", "phone": "+91 422 230 1393", "priority_override": "P0", "active": true },
    { "zone_id": "CBE_HOS_002", "name": "Government Medical College & ESI Hospital", "zone_type": "HOSPITAL", "lat": 11.0092483, "lng": 77.0241703, "address": "58, Kamarajar Rd, Varadharajapuram, Coimbatore - 641015", "ward": "Varadharajapuram", "phone": "+91 1800 11 2526", "priority_override": "P0", "active": true },
    { "zone_id": "CBE_HOS_003", "name": "KG Hospital", "zone_type": "HOSPITAL", "lat": 11.0002319, "lng": 76.9715735, "address": "5, Government Arts College Rd, Gopalapuram, Coimbatore - 641018", "ward": "Gopalapuram", "phone": null, "priority_override": "P0", "active": true },
    { "zone_id": "CBE_HOS_004", "name": "Coimbatore City Government Hospital, Ganapathy", "zone_type": "HOSPITAL", "lat": 11.0364094, "lng": 76.9739572, "address": "Sanganoor Rd, Near S.E.S School, Ganapathy, Coimbatore - 641006", "ward": "Ganapathy", "phone": null, "priority_override": "P0", "active": true },
    { "zone_id": "CBE_HOS_005", "name": "Coimbatore Government Hospital (Town Hall)", "zone_type": "HOSPITAL", "lat": 10.9973348, "lng": 76.9588582, "address": "Town Hall, Coimbatore - 641001", "ward": "Town Hall", "phone": null, "priority_override": "P0", "active": true },
    { "zone_id": "CBE_HOS_006", "name": "Government Hospital, K.K. Pudur", "zone_type": "HOSPITAL", "lat": 11.0313202, "lng": 76.9445018, "address": "Kuppakonam Pudur, K K Pudur, Coimbatore - 641038", "ward": "K.K. Pudur", "phone": null, "priority_override": "P0", "active": true },
    { "zone_id": "CBE_HOS_007", "name": "GP Hospital (Government Peripheral Hospital)", "zone_type": "HOSPITAL", "lat": 11.0202513, "lng": 76.9708639, "address": "635, Sathy Rd, Gandhipuram, Coimbatore - 641012", "ward": "Gandhipuram", "phone": null, "priority_override": "P0", "active": true },

    { "zone_id": "CBE_PHC_001", "name": "Coimbatore Municipal Corporation PHC, R.S. Puram", "zone_type": "PHC", "lat": 11.0004090, "lng": 76.9514041, "address": "26, Sundaram St, Near Gandhi Park, R.S. Puram, Coimbatore - 641001", "ward": "R.S. Puram", "phone": "+91 422 239 0261", "priority_override": "P0", "active": true },

    { "zone_id": "CBE_SCH_001", "name": "Government Higher Secondary School, Ganapathy", "zone_type": "SCHOOL", "lat": 11.0362458, "lng": 76.9747469, "address": "Gopala Swamy Street, Sridevi Nagar, Ganapathy, Coimbatore - 641006", "ward": "Ganapathy", "phone": "+91 422 233 1307", "priority_override": "P0", "active": true },
    { "zone_id": "CBE_SCH_002", "name": "Government School, R.S. Puram", "zone_type": "SCHOOL", "lat": 11.0044528, "lng": 76.9539533, "address": "9, E Arunachalam Rd, R.S. Puram, Coimbatore - 641002", "ward": "R.S. Puram", "phone": null, "priority_override": "P0", "active": true },
    { "zone_id": "CBE_SCH_003", "name": "Corporation Higher Secondary School, Rathnapuri", "zone_type": "SCHOOL", "lat": 11.0264090, "lng": 76.9629388, "address": "Patel Road, Cross Cut Rd, Tatabad, Gandhipuram - 641027", "ward": "Tatabad", "phone": null, "priority_override": "P0", "active": true },
    { "zone_id": "CBE_SCH_004", "name": "Corporation Higher Secondary School, Sidhapudur", "zone_type": "SCHOOL", "lat": 11.0178481, "lng": 76.9734827, "address": "258, VKK Menon Rd, Siddhapudur, Coimbatore - 641044", "ward": "Siddhapudur", "phone": "+91 422 252 8234", "priority_override": "P0", "active": true },
    { "zone_id": "CBE_SCH_005", "name": "Coimbatore District Government Model School", "zone_type": "SCHOOL", "lat": 11.0057106, "lng": 76.9492346, "address": "197, Subramaniam Rd, R.S. Puram, Coimbatore - 641002", "ward": "R.S. Puram", "phone": null, "priority_override": "P0", "active": true },
    { "zone_id": "CBE_SCH_006", "name": "Municipality Higher Secondary School, Ram Nagar", "zone_type": "SCHOOL", "lat": 11.0162458, "lng": 76.9585774, "address": "512, Cross Cut Rd, Ram Nagar, Coimbatore - 641012", "ward": "Ram Nagar", "phone": null, "priority_override": "P0", "active": true },
    { "zone_id": "CBE_SCH_007", "name": "Corporation Girls Higher Secondary School, R.S. Puram", "zone_type": "SCHOOL", "lat": 11.0085607, "lng": 76.9481460, "address": "W Sambandam Rd, R.S. Puram, Coimbatore - 641002", "ward": "R.S. Puram", "phone": null, "priority_override": "P0", "active": true },
    { "zone_id": "CBE_SCH_008", "name": "Government Higher Secondary School, Ramalinga Nagar", "zone_type": "SCHOOL", "lat": 11.0200403, "lng": 76.9501722, "address": "Ramalingam Colony, Saibaba Colony, Coimbatore - 641043", "ward": "Saibaba Colony", "phone": null, "priority_override": "P0", "active": true },

    { "zone_id": "CBE_PVT_001", "name": "Narayana eTechno School", "zone_type": "PRIVATE_SCHOOL", "lat": 11.0504931, "lng": 76.9951165, "address": "No 142 & 144/2, Lakshmi Garden, Ganapathy, Coimbatore - 641006", "ward": "Ganapathy", "phone": "+91 1800 102 3344", "board": "CBSE", "priority_override": "P0", "active": true },
    { "zone_id": "CBE_PVT_002", "name": "Stanes School ICSE", "zone_type": "PRIVATE_SCHOOL", "lat": 11.0062760, "lng": 76.9738925, "address": "1044, Avinashi Rd, ATT Colony, Gopalapuram, Coimbatore - 641018", "ward": "Gopalapuram", "phone": "+91 422 238 5656", "board": "ICSE", "priority_override": "P0", "active": true },
    { "zone_id": "CBE_PVT_003", "name": "Vivekalaya Matriculation Higher Secondary School", "zone_type": "PRIVATE_SCHOOL", "lat": 10.9962745, "lng": 76.9788041, "address": "1602, Opp Richmond Hospital, Trichy Road, Race Course, Coimbatore - 641018", "ward": "Race Course", "phone": "+91 422 439 1232", "board": "MATRICULATION", "priority_override": "P0", "active": true },
    { "zone_id": "CBE_PVT_004", "name": "VIBGYOR High School", "zone_type": "PRIVATE_SCHOOL", "lat": 11.0122888, "lng": 77.0244040, "address": "483, Kamarajar Rd, VL Nagar, Uppilipalayam, Coimbatore - 641015", "ward": "Uppilipalayam", "phone": "+91 60030 00700", "board": "CBSE", "priority_override": "P0", "active": true },
    { "zone_id": "CBE_PVT_005", "name": "NISE ICSE School, Peelamedu", "zone_type": "PRIVATE_SCHOOL", "lat": 11.0303885, "lng": 77.0085031, "address": "V.O.C. Colony, Peelamedu, Avinashi Road, Coimbatore - 641004", "ward": "Peelamedu", "phone": "+91 90036 99399", "board": "ICSE", "priority_override": "P0", "active": true },
    { "zone_id": "CBE_PVT_006", "name": "Lisieux CMI International School", "zone_type": "PRIVATE_SCHOOL", "lat": 11.0216595, "lng": 76.9436171, "address": "Saibaba Colony, Coimbatore - 641011", "ward": "Saibaba Colony", "phone": "+91 422 243 0537", "board": "CBSE", "priority_override": "P0", "active": true },
    { "zone_id": "CBE_PVT_007", "name": "Nirmala Matha Convent School ICSE/ISC", "zone_type": "PRIVATE_SCHOOL", "lat": 10.9559101, "lng": 76.9624327, "address": "5/42, Siruvani Nagar, Edayarpalayam, Kuniyamuthur, Coimbatore - 641008", "ward": "Kuniyamuthur", "phone": "+91 422 225 2030", "board": "ICSE", "priority_override": "P0", "active": true },
    { "zone_id": "CBE_PVT_008", "name": "Manchester International School", "zone_type": "PRIVATE_SCHOOL", "lat": 11.0848666, "lng": 76.9630555, "address": "29/3, Thudiyalur-Saravanampatti Rd, Vellakinar, Coimbatore - 641029", "ward": "Saravanampatti", "phone": "+91 92446 44446", "board": "CBSE", "priority_override": "P0", "active": true },
    { "zone_id": "CBE_PVT_009", "name": "Kovai Vidya Mandhir School", "zone_type": "PRIVATE_SCHOOL", "lat": 11.0471170, "lng": 77.0541073, "address": "Door No 19, Avinashi Road, Chinniyampalayam, Coimbatore - 641062", "ward": "Chinniyampalayam", "phone": "+91 90927 41327", "board": "MATRICULATION", "priority_override": "P0", "active": true },
    { "zone_id": "CBE_PVT_010", "name": "Pandian Matriculation School, Tatabad", "zone_type": "PRIVATE_SCHOOL", "lat": 11.0196615, "lng": 76.9635311, "address": "53, 8th St, Tatabad, Gandhipuram, Coimbatore - 641012", "ward": "Tatabad", "phone": "+91 422 249 3399", "board": "MATRICULATION", "priority_override": "P0", "active": true },
    { "zone_id": "CBE_PVT_011", "name": "The Bridgewoods Public School", "zone_type": "PRIVATE_SCHOOL", "lat": 11.0190540, "lng": 77.0398183, "address": "48/3, Civil Aerodrome Road, SIHS Colony, Coimbatore - 641014", "ward": "Civil Aerodrome", "phone": "+91 64101 48264", "board": "CBSE", "priority_override": "P0", "active": true },
    { "zone_id": "CBE_PVT_012", "name": "National Model Quantum Leap Academy (ICSE)", "zone_type": "PRIVATE_SCHOOL", "lat": 11.0401995, "lng": 77.0138233, "address": "Villankurichi Rd, Gauthama Puri Nagar, Coimbatore - 641004", "ward": "Villankurichi", "phone": "+91 76396 33333", "board": "ICSE", "priority_override": "P0", "active": true },

    { "zone_id": "CBE_COL_001", "name": "Kumaraguru College of Technology (KCT)", "zone_type": "COLLEGE", "lat": 11.0812885, "lng": 76.9901075, "address": "Athipalayam Rd, Chinnavedampatti, Coimbatore - 641035", "ward": "Chinnavedampatti", "phone": "+91 422 266 1100", "type_of_institution": "Engineering", "priority_override": "P0", "active": true },
    { "zone_id": "CBE_COL_002", "name": "Coimbatore Institute of Technology (CIT)", "zone_type": "COLLEGE", "lat": 11.0283259, "lng": 77.0272806, "address": "Avinashi Rd, Civil Aerodrome Post, Coimbatore - 641014", "ward": "Civil Aerodrome", "phone": "+91 422 257 4071", "type_of_institution": "Engineering", "priority_override": "P0", "active": true },
    { "zone_id": "CBE_COL_003", "name": "PSG College of Arts and Science", "zone_type": "COLLEGE", "lat": 11.0345889, "lng": 77.0338623, "address": "Avinashi Rd, Civil Aerodrome Post, Coimbatore - 641014", "ward": "Civil Aerodrome", "phone": "+91 422 430 3300", "type_of_institution": "Arts & Science", "priority_override": "P0", "active": true },
    { "zone_id": "CBE_COL_004", "name": "Sri Ramakrishna College of Arts & Science", "zone_type": "COLLEGE", "lat": 11.0226208, "lng": 76.9868191, "address": "Nava India Rd, Peelamedu, Coimbatore - 641006", "ward": "Peelamedu", "phone": "+91 422 256 2788", "type_of_institution": "Arts & Science", "priority_override": "P0", "active": true },
    { "zone_id": "CBE_COL_005", "name": "Sri Ramakrishna College of Arts and Science for Women", "zone_type": "COLLEGE", "lat": 11.0225213, "lng": 76.9778095, "address": "395, Sarojini Naidu Rd, Siddhapudur, Coimbatore - 641044", "ward": "Siddhapudur", "phone": "+91 422 224 3624", "type_of_institution": "Arts & Science (Women)", "priority_override": "P0", "active": true },
    { "zone_id": "CBE_COL_006", "name": "SNS College of Engineering", "zone_type": "COLLEGE", "lat": 11.1034195, "lng": 77.0271710, "address": "SNS Kalvi Nagar, Sathy Main Road, Kurumbapalayam, Coimbatore - 641107", "ward": "Saravanampatti", "phone": "+91 75503 16708", "type_of_institution": "Engineering", "priority_override": "P0", "active": true },
    { "zone_id": "CBE_COL_007", "name": "SNS College of Technology", "zone_type": "COLLEGE", "lat": 11.1004301, "lng": 77.0266116, "address": "SNS Kalvi Nagar, Sathy Main Road, Saravanampatti, Coimbatore - 641048", "ward": "Saravanampatti", "phone": "+91 75503 16701", "type_of_institution": "Engineering", "priority_override": "P0", "active": true },
    { "zone_id": "CBE_COL_008", "name": "Sri Krishna College of Engineering and Technology (SKCET)", "zone_type": "COLLEGE", "lat": 10.9390304, "lng": 76.9522005, "address": "BK Pudur, Kuniyamuthur, Coimbatore - 641008", "ward": "Kuniyamuthur", "phone": "+91 422 267 8001", "type_of_institution": "Engineering", "priority_override": "P0", "active": true },
    { "zone_id": "CBE_COL_009", "name": "Sri Krishna Arts and Science College", "zone_type": "COLLEGE", "lat": 10.9379272, "lng": 76.9592033, "address": "BK Pudur, Sugunapuram East, Coimbatore - 641008", "ward": "Kuniyamuthur", "phone": "+91 422 267 8400", "type_of_institution": "Arts & Science", "priority_override": "P0", "active": true },
    { "zone_id": "CBE_COL_010", "name": "Kongunadu Arts and Science College", "zone_type": "COLLEGE", "lat": 11.0596944, "lng": 76.9487463, "address": "Udayampalayam Rd, Coimbatore - 641029", "ward": "GN Mills", "phone": "+91 422 264 2095", "type_of_institution": "Arts & Science", "priority_override": "P0", "active": true },
    { "zone_id": "CBE_COL_011", "name": "Government College of Technology (GCT)", "zone_type": "COLLEGE", "lat": 11.0177983, "lng": 76.9359587, "address": "Thadagam Main Rd, Tamil Nadu Agricultural University, Coimbatore - 641013", "ward": "Saibaba Colony", "phone": "+91 422 243 2221", "type_of_institution": "Engineering (Govt)", "priority_override": "P0", "active": true },
    { "zone_id": "CBE_COL_012", "name": "KPR Institute of Engineering and Technology", "zone_type": "COLLEGE", "lat": 11.0764689, "lng": 77.1420187, "address": "Avinashi-Coimbatore Road, Arasur, Uthupalayam - 641407", "ward": "Arasur", "phone": "+91 422 263 5600", "type_of_institution": "Engineering", "priority_override": "P0", "active": true },
    { "zone_id": "CBE_COL_013", "name": "Hindusthan College of Engineering and Technology", "zone_type": "COLLEGE", "lat": 10.8914786, "lng": 76.9907974, "address": "Pollachi Main Rd, Malumichampatti, Coimbatore - 641032", "ward": "Malumichampatti", "phone": "+91 422 424 2424", "type_of_institution": "Engineering", "priority_override": "P0", "active": true },
    { "zone_id": "CBE_COL_014", "name": "Dr. SNS Rajalakshmi College of Arts and Science", "zone_type": "COLLEGE", "lat": 11.0816132, "lng": 76.9766075, "address": "486, Thudiyalur-Saravanampatti Road, Chinnavedampatti, Coimbatore - 641049", "ward": "Chinnavedampatti", "phone": "+91 75300 93725", "type_of_institution": "Arts & Science", "priority_override": "P0", "active": true },
    { "zone_id": "CBE_COL_015", "name": "PPG College of Arts and Science", "zone_type": "COLLEGE", "lat": 11.0902249, "lng": 77.0187630, "address": "Viswapuram, Saravanampatti, Coimbatore - 641035", "ward": "Saravanampatti", "phone": null, "type_of_institution": "Arts & Science", "priority_override": "P0", "active": true },
    { "zone_id": "CBE_COL_016", "name": "Nehru Arts and Science College", "zone_type": "COLLEGE", "lat": 10.8706246, "lng": 76.9285772, "address": "Nehru College Rd, Thirumalayampalayam, Coimbatore - 641105", "ward": "Thirumalayampalayam", "phone": "+91 88700 05337", "type_of_institution": "Arts & Science", "priority_override": "P0", "active": true },

    { "zone_id": "CBE_AWC_001", "name": "TN ICDS 202 Anganwadi Centre, Poompugar Nagar", "zone_type": "ANGANWADI", "lat": 11.0644780, "lng": 77.0054130, "address": "173K/15, Poompugar Nagar, Vinayagapuram, Coimbatore - 641035", "ward": "Vinayagapuram", "phone": null, "priority_override": "P0", "active": true },
    { "zone_id": "CBE_AWC_002", "name": "Anganwadi Centre, Jothipuram", "zone_type": "ANGANWADI", "lat": 11.1663307, "lng": 76.9516672, "address": "Jothipuram, Coimbatore - 641047", "ward": "Jothipuram", "phone": null, "priority_override": "P0", "active": true },
    { "zone_id": "CBE_AWC_003", "name": "Ambethkar Nagar Anganwadi", "zone_type": "ANGANWADI", "lat": 11.0616949, "lng": 77.0234323, "address": "Ambedkar Nagar, Vilangamudi, Coimbatore - 641051", "ward": "Vilangamudi", "phone": null, "priority_override": "P0", "active": true },
    { "zone_id": "CBE_AWC_004", "name": "Government Anganwadi Centre, Podanur", "zone_type": "ANGANWADI", "lat": 10.9689480, "lng": 77.0121240, "address": "Kovai Mahalingapuram, Podanur - 641111", "ward": "Podanur", "phone": null, "priority_override": "P0", "active": true },
    { "zone_id": "CBE_AWC_005", "name": "Government Anganwadi Centre, Vellalore", "zone_type": "ANGANWADI", "lat": 10.9660985, "lng": 77.0247133, "address": "350/50, Kanjikonaampalayam, Vellalore - 641111", "ward": "Vellalore", "phone": null, "priority_override": "P0", "active": true },

    { "zone_id": "CBE_WTR_001", "name": "Kumaraswamy Lake", "zone_type": "WATER_BODY", "lat": 11.0025120, "lng": 76.9434208, "address": "Thadagam Rd, Coimbatore - 641039", "ward": "Saibaba Colony", "phone": null, "priority_override": "P1", "dengue_risk": true, "active": true },
    { "zone_id": "CBE_WTR_002", "name": "Periyakulam Lake (Boat House)", "zone_type": "WATER_BODY", "lat": 10.9875136, "lng": 76.9572822, "address": "Periya Kulam, Coimbatore - 641001", "ward": "Town Hall", "phone": "+91 1800 4253 1111", "priority_override": "P1", "dengue_risk": true, "active": true },
    { "zone_id": "CBE_WTR_003", "name": "Vedapatti Lake", "zone_type": "WATER_BODY", "lat": 10.9866109, "lng": 76.8958756, "address": "Vedapatti, Coimbatore - 641007", "ward": "Vedapatti", "phone": null, "priority_override": "P1", "dengue_risk": true, "active": true },
    { "zone_id": "CBE_WTR_004", "name": "Sundakamuthur Perur Lake", "zone_type": "WATER_BODY", "lat": 10.9693737, "lng": 76.9309027, "address": "Kovaipudur Bypass Rd, Perur, Coimbatore - 641010", "ward": "Perur", "phone": null, "priority_override": "P1", "dengue_risk": true, "active": true }
  ]
}